{"type":"FeatureCollection","features":[{"type":"Feature","properties":{"id":1,"name":"Alaska","estimate":"95.80"},"geometry":{"type":"Point","coordinates":[-152.404419,61.370716]}},{"type":"Feature","properties":{"id":2,"name":"Nevada","estimate":"87.80"},"geometry":{"type":"Point","coordinates":[-117.055374,38.313515]}},{"type":"Feature","properties":{"id":3,"name":"Utah","estimate":"75.20"},"geometry":{"type":"Point","coordinates":[-111.862434,40.150032]}},{"type":"Feature","properties":{"id":4,"name":"Idaho","estimate":"70.40"},"geometry":{"type":"Point","coordinates":[-114.478828,44.240459]}},{"type":"Feature","properties":{"id":5,"name":"Oregon","estimate":"60.40"},"geometry":{"type":"Point","coordinates":[-122.070938,44.572021]}},{"type":"Feature","properties":{"id":6,"name":"Arizona","estimate":"56.80"},"geometry":{"type":"Point","coordinates":[-111.431221,33.729759]}},{"type":"Feature","properties":{"id":7,"name":"Wyoming","estimate":"55.90"},"geometry":{"type":"Point","coordinates":[-107.30249,42.755966]}},{"type":"Feature","properties":{"id":8,"name":"California","estimate":"52.10"},"geometry":{"type":"Point","coordinates":[-119.681564,36.116203]}},{"type":"Feature","properties":{"id":9,"name":"New Mexico","estimate":"47.40"},"geometry":{"type":"Point","coordinates":[-106.248482,34.840515]}},{"type":"Feature","properties":{"id":10,"name":"Colorado","estimate":"43.30"},"geometry":{"type":"Point","coordinates":[-105.311104,39.059811]}},{"type":"Feature","properties":{"id":11,"name":"Washington","estimate":"41.90"},"geometry":{"type":"Point","coordinates":[-121.490494,47.400902]}},{"type":"Feature","properties":{"id":12,"name":"Montana","estimate":"37.50"},"geometry":{"type":"Point","coordinates":[-110.454353,46.921925]}},{"type":"Feature","properties":{"id":13,"name":"New York","estimate":"37.10"},"geometry":{"type":"Point","coordinates":[-74.948051,42.165726]}},{"type":"Feature","properties":{"id":14,"name":"Florida ","estimate":"29.20"},"geometry":{"type":"Point","coordinates":[-81.686783,27.766279]}},{"type":"Feature","properties":{"id":15,"name":"Michigan","estimate":"28.10"},"geometry":{"type":"Point","coordinates":[-84.536095,43.326618]}},{"type":"Feature","properties":{"id":16,"name":"Minnesota","estimate":"23.50"},"geometry":{"type":"Point","coordinates":[-93.900192,45.694454]}},{"type":"Feature","properties":{"id":17,"name":"Hawaii","estimate":"19.00"},"geometry":{"type":"Point","coordinates":[-157.498337,21.094318]}},{"type":"Feature","properties":{"id":18,"name":"New Jersey","estimate":"18.30"},"geometry":{"type":"Point","coordinates":[-74.521011,40.298904]}},{"type":"Feature","properties":{"id":19,"name":"New Hampshire","estimate":"18.00"},"geometry":{"type":"Point","coordinates":[-71.563896,43.452492]}},{"type":"Feature","properties":{"id":20,"name":"Wisconsin","estimate":"17.80"},"geometry":{"type":"Point","coordinates":[-89.616508,44.268543]}},{"type":"Feature","properties":{"id":21,"name":"Arkansas","estimate":"17.30"},"geometry":{"type":"Point","coordinates":[-92.373123,34.969704]}},{"type":"Feature","properties":{"id":22,"name":"Virginia","estimate":"17.10"},"geometry":{"type":"Point","coordinates":[-78.169968,37.769337]}},{"type":"Feature","properties":{"id":23,"name":"West Virgina","estimate":"16.50"},"geometry":{"type":"Point","coordinates":[-80.954453,38.491226]}},{"type":"Feature","properties":{"id":24,"name":"Pennsylvania","estimate":"16.10"},"geometry":{"type":"Point","coordinates":[-77.209755,40.590752]}},{"type":"Feature","properties":{"id":25,"name":"Vermont","estimate":"15.80"},"geometry":{"type":"Point","coordinates":[-72.710686,44.045876]}},{"type":"Feature","properties":{"id":26,"name":"North Carolina","estimate":"14.60"},"geometry":{"type":"Point","coordinates":[-79.806419,35.630066]}},{"type":"Feature","properties":{"id":27,"name":"Tennessee","estimate":"14.10"},"geometry":{"type":"Point","coordinates":[-86.692345,35.747845]}},{"type":"Feature","properties":{"id":28,"name":"Kentucky","estimate":"11.80"},"geometry":{"type":"Point","coordinates":[-84.670067,37.66814]}},{"type":"Feature","properties":{"id":29,"name":"South Carolina","estimate":"11.80"},"geometry":{"type":"Point","coordinates":[-80.945007,33.856892]}},{"type":"Feature","properties":{"id":30,"name":"Missouri","estimate":"11.20"},"geometry":{"type":"Point","coordinates":[-92.288368,38.456085]}},{"type":"Feature","properties":{"id":31,"name":"Mississippi","estimate":"10.90"},"geometry":{"type":"Point","coordinates":[-89.678696,32.741646]}},{"type":"Feature","properties":{"id":32,"name":"Louisiana","estimate":"10.70"},"geometry":{"type":"Point","coordinates":[-91.867805,31.169546]}},{"type":"Feature","properties":{"id":33,"name":"Georgia","estimate":"9.70"},"geometry":{"type":"Point","coordinates":[-83.643074,33.040619]}},{"type":"Feature","properties":{"id":34,"name":"North Dakota","estimate":"9.10"},"geometry":{"type":"Point","coordinates":[-99.784012,47.528912]}},{"type":"Feature","properties":{"id":35,"name":"South Dakota","estimate":"8.90"},"geometry":{"type":"Point","coordinates":[-99.438828,44.299782]}},{"type":"Feature","properties":{"id":36,"name":"Maryland","estimate":"7.60"},"geometry":{"type":"Point","coordinates":[-76.802101,39.063946]}},{"type":"Feature","properties":{"id":37,"name":"Delaware","estimate":"7.40"},"geometry":{"type":"Point","coordinates":[-75.507141,39.318523]}},{"type":"Feature","properties":{"id":38,"name":"Alabama","estimate":"7.10"},"geometry":{"type":"Point","coordinates":[-86.79113,32.806671]}},{"type":"Feature","properties":{"id":39,"name":"Massachusetts","estimate":"6.30"},"geometry":{"type":"Point","coordinates":[-71.530106,42.230171]}},{"type":"Feature","properties":{"id":40,"name":"Connecticut","estimate":"6.20"},"geometry":{"type":"Point","coordinates":[-72.755371,41.597782]}},{"type":"Feature","properties":{"id":41,"name":"Maine","estimate":"5.70"},"geometry":{"type":"Point","coordinates":[-69.381927,44.693947]}},{"type":"Feature","properties":{"id":42,"name":"Oklahoma","estimate":"4.60"},"geometry":{"type":"Point","coordinates":[-96.928917,35.565342]}},{"type":"Feature","properties":{"id":43,"name":"Indiana","estimate":"4.50"},"geometry":{"type":"Point","coordinates":[-86.258278,39.849426]}},{"type":"Feature","properties":{"id":44,"name":"Ohio","estimate":"4.20"},"geometry":{"type":"Point","coordinates":[-82.764915,40.388783]}},{"type":"Feature","properties":{"id":45,"name":"Texas","estimate":"4.20"},"geometry":{"type":"Point","coordinates":[-97.563461,31.054487]}},{"type":"Feature","properties":{"id":46,"name":"Illinois","estimate":"4.10"},"geometry":{"type":"Point","coordinates":[-88.986137,40.349457]}},{"type":"Feature","properties":{"id":47,"name":"Iowa","estimate":"2.80"},"geometry":{"type":"Point","coordinates":[-93.210526,42.011539]}},{"type":"Feature","properties":{"id":48,"name":"Nebraska","estimate":"2.80"},"geometry":{"type":"Point","coordinates":[-98.268082,41.12537]}},{"type":"Feature","properties":{"id":49,"name":"Kansas","estimate":"1.90"},"geometry":{"type":"Point","coordinates":[-96.726486,38.5266]}},{"type":"Feature","properties":{"id":50,"name":"Rhode Island","estimate":"1.50"},"geometry":{"type":"Point","coordinates":[-71.51178,41.680893]}}]}